{"type": "FeatureCollection", "features": [{"type": "Feature", "geometry": {"type": "Point", "coordinates": [-82.78406159031351, 40.0724247418587]}, "properties": {"name": "Amazon AWS \u2013 Ridge One (2570 Beech Rd)", "operator": "Amazon AWS", "city": "New Albany", "county": "Licking", "metro": "Columbus", "type": "Hyperscale", "size": "Medium", "status": "Operational", "mw": "", "notes": "US-East-1 region flagship campus"}}, {"type": "Feature", "geometry": {"type": "Point", "coordinates": [-82.78165214031057, 40.09214482252534]}, "properties": {"name": "Amazon AWS \u2013 West Tower (3180 Beech Rd)", "operator": "Amazon AWS", "city": "New Albany", "county": "Licking", "metro": "Columbus", "type": "Hyperscale", "size": "Large", "status": "Operational", "mw": "", "notes": "3180 Beech Rd campus bldg 1"}}, {"type": "Feature", "geometry": {"type": "Point", "coordinates": [-82.79133849859289, 40.07491115105021]}, "properties": {"name": "Amazon AWS \u2013 Park Three (3180 Beech Bldg 2)", "operator": "Amazon AWS", "city": "New Albany", "county": "Licking", "metro": "Columbus", "type": "Hyperscale", "size": "Large", "status": "Operational", "mw": "", "notes": "3180 Beech Rd campus bldg 2"}}, {"type": "Feature", "geometry": {"type": "Point", "coordinates": [-82.80192401517846, 40.0748651541537]}, "properties": {"name": "Amazon AWS \u2013 East Center (3180 Beech Bldg 3)", "operator": "Amazon AWS", "city": "New Albany", "county": "Licking", "metro": "Columbus", "type": "Hyperscale", "size": "Large", "status": "Operational", "mw": "", "notes": "3180 Beech Rd campus bldg 3"}}, {"type": "Feature", "geometry": {"type": "Point", "coordinates": [-82.78659711225774, 40.08414964067735]}, "properties": {"name": "Amazon AWS \u2013 Cloud (3180 Beech Bldg 4)", "operator": "Amazon AWS", "city": "New Albany", "county": "Licking", "metro": "Columbus", "type": "Hyperscale", "size": "Large", "status": "Operational", "mw": "", "notes": "3180 Beech Rd campus bldg 4"}}, {"type": "Feature", "geometry": {"type": "Point", "coordinates": [-82.78467310298433, 40.08824016201028]}, "properties": {"name": "Amazon AWS \u2013 Campus Alpha (3180 Beech Bldg 5)", "operator": "Amazon AWS", "city": "New Albany", "county": "Licking", "metro": "Columbus", "type": "Hyperscale", "size": "Large", "status": "Operational", "mw": "", "notes": "3180 Beech Rd campus bldg 5"}}, {"type": "Feature", "geometry": {"type": "Point", "coordinates": [-82.80077961982582, 40.076971986356]}, "properties": {"name": "Amazon AWS \u2013 Hyperscale DC (Miller Rd Campus)", "operator": "Amazon AWS", "city": "New Albany", "county": "Licking", "metro": "Columbus", "type": "Hyperscale", "size": "Large", "status": "Operational", "mw": "", "notes": "Miller & Beech Rd campus"}}, {"type": "Feature", "geometry": {"type": "Point", "coordinates": [-82.78130491913997, 40.074640940625144]}, "properties": {"name": "Amazon AWS \u2013 Miller 2", "operator": "Amazon AWS", "city": "New Albany", "county": "Licking", "metro": "Columbus", "type": "Hyperscale", "size": "Large", "status": "Construction", "mw": "", "notes": "Miller Rd expansion bldg 2"}}, {"type": "Feature", "geometry": {"type": "Point", "coordinates": [-82.79544051364653, 40.08031217658756]}, "properties": {"name": "Amazon AWS \u2013 Miller 3", "operator": "Amazon AWS", "city": "New Albany", "county": "Licking", "metro": "Columbus", "type": "Hyperscale", "size": "Large", "status": "Construction", "mw": "", "notes": "Miller Rd expansion bldg 3"}}, {"type": "Feature", "geometry": {"type": "Point", "coordinates": [-82.7941066626878, 40.08291366227256]}, "properties": {"name": "Amazon AWS \u2013 Miller 4", "operator": "Amazon AWS", "city": "New Albany", "county": "Licking", "metro": "Columbus", "type": "Hyperscale", "size": "Large", "status": "Construction", "mw": "", "notes": "Miller Rd expansion bldg 4"}}, {"type": "Feature", "geometry": {"type": "Point", "coordinates": [-82.79096546273406, 40.08005710928424]}, "properties": {"name": "Amazon AWS \u2013 Miller 5", "operator": "Amazon AWS", "city": "New Albany", "county": "Licking", "metro": "Columbus", "type": "Hyperscale", "size": "Large", "status": "Planned", "mw": "", "notes": "Miller Rd expansion bldg 5"}}, {"type": "Feature", "geometry": {"type": "Point", "coordinates": [-83.15392065993623, 40.03308969628853]}, "properties": {"name": "Amazon AWS \u2013 Station Plus (5109 Hayden Run)", "operator": "Amazon AWS", "city": "Hilliard", "county": "Franklin", "metro": "Columbus", "type": "Hyperscale", "size": "Small", "status": "Operational", "mw": "", "notes": "Cosgray/Hayden Run cluster"}}, {"type": "Feature", "geometry": {"type": "Point", "coordinates": [-83.15325380816886, 40.027916203801176]}, "properties": {"name": "Amazon AWS \u2013 Hub (5117 Hayden Run)", "operator": "Amazon AWS", "city": "Hilliard", "county": "Franklin", "metro": "Columbus", "type": "Hyperscale", "size": "Small", "status": "Operational", "mw": "", "notes": "Hayden Run cluster"}}, {"type": "Feature", "geometry": {"type": "Point", "coordinates": [-83.15283794742432, 40.02426388490484]}, "properties": {"name": "Amazon AWS \u2013 Tower Three (5113 Hayden Run)", "operator": "Amazon AWS", "city": "Hilliard", "county": "Franklin", "metro": "Columbus", "type": "Hyperscale", "size": "Small", "status": "Operational", "mw": "", "notes": "Hayden Run cluster"}}, {"type": "Feature", "geometry": {"type": "Point", "coordinates": [-83.169420287349, 40.04486581139725]}, "properties": {"name": "Amazon AWS \u2013 West (5125 Hayden Run)", "operator": "Amazon AWS", "city": "Hilliard", "county": "Franklin", "metro": "Columbus", "type": "Hyperscale", "size": "Medium", "status": "Operational", "mw": "", "notes": "Hayden Run cluster"}}, {"type": "Feature", "geometry": {"type": "Point", "coordinates": [-83.15816846402558, 40.03037654659794]}, "properties": {"name": "Amazon AWS \u2013 West Plaza (5121 Hayden Run)", "operator": "Amazon AWS", "city": "Hilliard", "county": "Franklin", "metro": "Columbus", "type": "Hyperscale", "size": "Medium", "status": "Operational", "mw": "", "notes": "Hayden Run cluster"}}, {"type": "Feature", "geometry": {"type": "Point", "coordinates": [-83.15033942134916, 40.0342276138331]}, "properties": {"name": "Amazon AWS \u2013 North (Cosgray Campus)", "operator": "Amazon AWS", "city": "Hilliard", "county": "Franklin", "metro": "Columbus", "type": "Hyperscale", "size": "Large", "status": "Operational", "mw": "", "notes": "Cosgray campus bldg 1"}}, {"type": "Feature", "geometry": {"type": "Point", "coordinates": [-83.15382566683611, 40.02605035672]}, "properties": {"name": "Amazon AWS \u2013 Core Ridge (Cosgray 2)", "operator": "Amazon AWS", "city": "Hilliard", "county": "Franklin", "metro": "Columbus", "type": "Hyperscale", "size": "Large", "status": "Operational", "mw": "", "notes": "Cosgray campus bldg 2"}}, {"type": "Feature", "geometry": {"type": "Point", "coordinates": [-83.15086212745392, 40.03795101984321]}, "properties": {"name": "Amazon AWS \u2013 Valley Gamma (Cosgray 3)", "operator": "Amazon AWS", "city": "Hilliard", "county": "Franklin", "metro": "Columbus", "type": "Hyperscale", "size": "Large", "status": "Operational", "mw": "", "notes": "Cosgray campus bldg 3"}}, {"type": "Feature", "geometry": {"type": "Point", "coordinates": [-83.15322990023137, 40.043435352228194]}, "properties": {"name": "Amazon AWS \u2013 Plaza (Cosgray 4)", "operator": "Amazon AWS", "city": "Hilliard", "county": "Franklin", "metro": "Columbus", "type": "Hyperscale", "size": "Large", "status": "Operational", "mw": "", "notes": "Cosgray campus bldg 4"}}, {"type": "Feature", "geometry": {"type": "Point", "coordinates": [-82.99424559381877, 39.953158787515996]}, "properties": {"name": "Amazon AWS \u2013 Metro Park (2875 Newton)", "operator": "Amazon AWS", "city": "Columbus", "county": "Franklin", "metro": "Columbus", "type": "Hyperscale", "size": "Large", "status": "Operational", "mw": "", "notes": "Newton Rd cluster"}}, {"type": "Feature", "geometry": {"type": "Point", "coordinates": [-83.00743115383817, 39.97219702511561]}, "properties": {"name": "Amazon AWS \u2013 West (2675 Newton)", "operator": "Amazon AWS", "city": "Columbus", "county": "Franklin", "metro": "Columbus", "type": "Hyperscale", "size": "Large", "status": "Operational", "mw": "", "notes": "Newton Rd cluster"}}, {"type": "Feature", "geometry": {"type": "Point", "coordinates": [-82.98803346132817, 39.97139676603902]}, "properties": {"name": "Amazon AWS \u2013 Hub Alpha (2775 Newton)", "operator": "Amazon AWS", "city": "Columbus", "county": "Franklin", "metro": "Columbus", "type": "Hyperscale", "size": "Large", "status": "Operational", "mw": "", "notes": "Newton Rd cluster"}}, {"type": "Feature", "geometry": {"type": "Point", "coordinates": [-82.99064480632852, 39.966296231707844]}, "properties": {"name": "Amazon AWS \u2013 Two (2575 Newton)", "operator": "Amazon AWS", "city": "Columbus", "county": "Franklin", "metro": "Columbus", "type": "Hyperscale", "size": "Large", "status": "Operational", "mw": "", "notes": "Newton Rd cluster"}}, {"type": "Feature", "geometry": {"type": "Point", "coordinates": [-82.98855707581457, 39.95824709525737]}, "properties": {"name": "Amazon AWS \u2013 East Tower (6675 Crosby Ct)", "operator": "Amazon AWS", "city": "Columbus", "county": "Franklin", "metro": "Columbus", "type": "Hyperscale", "size": "Medium", "status": "Operational", "mw": "", "notes": "Crosby Ct cluster"}}, {"type": "Feature", "geometry": {"type": "Point", "coordinates": [-83.0059339368237, 39.967134990389354]}, "properties": {"name": "Amazon AWS \u2013 Global (6665 Crosby Ct)", "operator": "Amazon AWS", "city": "Columbus", "county": "Franklin", "metro": "Columbus", "type": "Hyperscale", "size": "Medium", "status": "Operational", "mw": "", "notes": "Crosby Ct cluster"}}, {"type": "Feature", "geometry": {"type": "Point", "coordinates": [-82.99396713101676, 39.96476393327949]}, "properties": {"name": "Amazon AWS \u2013 Hub Prime (6655 Crosby Ct)", "operator": "Amazon AWS", "city": "Columbus", "county": "Franklin", "metro": "Columbus", "type": "Hyperscale", "size": "Large", "status": "Operational", "mw": "", "notes": "Crosby Ct cluster"}}, {"type": "Feature", "geometry": {"type": "Point", "coordinates": [-83.00765954799432, 39.95191097208423]}, "properties": {"name": "Amazon AWS \u2013 Park One (6645 Crosby Ct)", "operator": "Amazon AWS", "city": "Columbus", "county": "Franklin", "metro": "Columbus", "type": "Hyperscale", "size": "Medium", "status": "Operational", "mw": "", "notes": "Crosby Ct cluster"}}, {"type": "Feature", "geometry": {"type": "Point", "coordinates": [-83.0025000362399, 39.96235485729148]}, "properties": {"name": "Amazon AWS \u2013 Metro (Crosby Campus)", "operator": "Amazon AWS", "city": "Columbus", "county": "Franklin", "metro": "Columbus", "type": "Hyperscale", "size": "Large", "status": "Operational", "mw": "", "notes": "Crosby campus hub"}}, {"type": "Feature", "geometry": {"type": "Point", "coordinates": [-83.00385928535265, 39.96213795755054]}, "properties": {"name": "Amazon AWS \u2013 Cloud Hub (Scioto Darby)", "operator": "Amazon AWS", "city": "Columbus", "county": "Franklin", "metro": "Columbus", "type": "Hyperscale", "size": "Large", "status": "Operational", "mw": "", "notes": "West Columbus campus bldg 1"}}, {"type": "Feature", "geometry": {"type": "Point", "coordinates": [-83.00810242733408, 39.94949467793755]}, "properties": {"name": "Amazon AWS \u2013 Campus Ultra (Scioto Darby 2)", "operator": "Amazon AWS", "city": "Columbus", "county": "Franklin", "metro": "Columbus", "type": "Hyperscale", "size": "Large", "status": "Operational", "mw": "", "notes": "West Columbus campus bldg 2"}}, {"type": "Feature", "geometry": {"type": "Point", "coordinates": [-83.00567319705284, 39.951058122812476]}, "properties": {"name": "Amazon AWS \u2013 North Park (Scioto Darby 3)", "operator": "Amazon AWS", "city": "Columbus", "county": "Franklin", "metro": "Columbus", "type": "Hyperscale", "size": "Large", "status": "Operational", "mw": "", "notes": "West Columbus campus bldg 3"}}, {"type": "Feature", "geometry": {"type": "Point", "coordinates": [-82.9956264081061, 39.962887882155286]}, "properties": {"name": "Amazon AWS \u2013 West (Scioto Darby 4)", "operator": "Amazon AWS", "city": "Columbus", "county": "Franklin", "metro": "Columbus", "type": "Hyperscale", "size": "Large", "status": "Operational", "mw": "", "notes": "West Columbus campus bldg 4"}}, {"type": "Feature", "geometry": {"type": "Point", "coordinates": [-82.99674207548601, 39.96189444919057]}, "properties": {"name": "Amazon AWS \u2013 Global Tower (Scioto Darby 5)", "operator": "Amazon AWS", "city": "Columbus", "county": "Franklin", "metro": "Columbus", "type": "Hyperscale", "size": "Large", "status": "Construction", "mw": "", "notes": "West Columbus campus bldg 5"}}, {"type": "Feature", "geometry": {"type": "Point", "coordinates": [-82.99278701719075, 39.96236867053545]}, "properties": {"name": "Amazon AWS \u2013 Campus Alpha (Scioto Darby 6)", "operator": "Amazon AWS", "city": "Columbus", "county": "Franklin", "metro": "Columbus", "type": "Hyperscale", "size": "Large", "status": "Construction", "mw": "", "notes": "West Columbus campus bldg 6"}}, {"type": "Feature", "geometry": {"type": "Point", "coordinates": [-82.98720286600218, 39.95708881249279]}, "properties": {"name": "Amazon AWS \u2013 Three (Warner Rd Campus)", "operator": "Amazon AWS", "city": "Columbus", "county": "Franklin", "metro": "Columbus", "type": "Hyperscale", "size": "Large", "status": "Operational", "mw": "", "notes": "Warner Rd cluster bldg 1"}}, {"type": "Feature", "geometry": {"type": "Point", "coordinates": [-83.0086015374061, 39.96556810945411]}, "properties": {"name": "Amazon AWS \u2013 Metro Station (Warner 2)", "operator": "Amazon AWS", "city": "Columbus", "county": "Franklin", "metro": "Columbus", "type": "Hyperscale", "size": "Large", "status": "Operational", "mw": "", "notes": "Warner Rd cluster bldg 2"}}, {"type": "Feature", "geometry": {"type": "Point", "coordinates": [-83.00050349638084, 39.96454736867329]}, "properties": {"name": "Amazon AWS \u2013 Prime Center (Warner 3)", "operator": "Amazon AWS", "city": "Columbus", "county": "Franklin", "metro": "Columbus", "type": "Hyperscale", "size": "Large", "status": "Operational", "mw": "", "notes": "Warner Rd cluster bldg 3"}}, {"type": "Feature", "geometry": {"type": "Point", "coordinates": [-83.00155045012964, 39.95423642986887]}, "properties": {"name": "Amazon AWS \u2013 Ridge (Warner 4)", "operator": "Amazon AWS", "city": "Columbus", "county": "Franklin", "metro": "Columbus", "type": "Hyperscale", "size": "Large", "status": "Operational", "mw": "", "notes": "Warner Rd cluster bldg 4"}}, {"type": "Feature", "geometry": {"type": "Point", "coordinates": [-82.98973117031026, 39.96020656102529]}, "properties": {"name": "Amazon AWS \u2013 Metro Campus (Industrial Pkwy)", "operator": "Amazon AWS", "city": "Columbus", "county": "Franklin", "metro": "Columbus", "type": "Hyperscale", "size": "Large", "status": "Operational", "mw": "", "notes": "Industrial Pkwy campus bldg 1"}}, {"type": "Feature", "geometry": {"type": "Point", "coordinates": [-83.00526273952855, 39.958344496559896]}, "properties": {"name": "Amazon AWS \u2013 Central Center (Industrial 2)", "operator": "Amazon AWS", "city": "Columbus", "county": "Franklin", "metro": "Columbus", "type": "Hyperscale", "size": "Large", "status": "Operational", "mw": "", "notes": "Industrial Pkwy campus bldg 2"}}, {"type": "Feature", "geometry": {"type": "Point", "coordinates": [-83.01019974187466, 39.964546243162985]}, "properties": {"name": "Amazon AWS \u2013 Global Hub (Industrial 3)", "operator": "Amazon AWS", "city": "Columbus", "county": "Franklin", "metro": "Columbus", "type": "Hyperscale", "size": "Medium", "status": "Operational", "mw": "", "notes": "Industrial Pkwy campus bldg 3"}}, {"type": "Feature", "geometry": {"type": "Point", "coordinates": [-82.99409061625671, 39.9501252441441]}, "properties": {"name": "Amazon AWS \u2013 North Plaza (Industrial 4)", "operator": "Amazon AWS", "city": "Columbus", "county": "Franklin", "metro": "Columbus", "type": "Hyperscale", "size": "Large", "status": "Construction", "mw": "", "notes": "Industrial Pkwy campus bldg 4"}}, {"type": "Feature", "geometry": {"type": "Point", "coordinates": [-82.9977926717815, 39.95900486110211]}, "properties": {"name": "Amazon AWS \u2013 West Center (CMH59)", "operator": "Amazon AWS", "city": "Columbus", "county": "Franklin", "metro": "Columbus", "type": "Hyperscale", "size": "Medium", "status": "Operational", "mw": "", "notes": "CMH59 facility"}}, {"type": "Feature", "geometry": {"type": "Point", "coordinates": [-82.99908732301158, 39.95572500994522]}, "properties": {"name": "Amazon AWS \u2013 Campus Two (CMH56)", "operator": "Amazon AWS", "city": "Columbus", "county": "Franklin", "metro": "Columbus", "type": "Hyperscale", "size": "Medium", "status": "Operational", "mw": "", "notes": "CMH56 facility"}}, {"type": "Feature", "geometry": {"type": "Point", "coordinates": [-83.0012001344967, 39.970518433834854]}, "properties": {"name": "Amazon AWS \u2013 Central Park (CMH53)", "operator": "Amazon AWS", "city": "Columbus", "county": "Franklin", "metro": "Columbus", "type": "Hyperscale", "size": "Medium", "status": "Operational", "mw": "", "notes": "CMH53 facility"}}, {"type": "Feature", "geometry": {"type": "Point", "coordinates": [-83.00047553009624, 39.95764431013987]}, "properties": {"name": "Amazon AWS \u2013 Prime Campus (2540 Beech Rd)", "operator": "Amazon AWS", "city": "Columbus", "county": "Franklin", "metro": "Columbus", "type": "Hyperscale", "size": "Medium", "status": "Operational", "mw": "", "notes": "2540 Beech Rd facility"}}, {"type": "Feature", "geometry": {"type": "Point", "coordinates": [-82.86813460487899, 40.24345578788199]}, "properties": {"name": "Amazon AWS \u2013 North (Sunbury)", "operator": "Amazon AWS", "city": "Sunbury", "county": "Delaware", "metro": "Columbus", "type": "Hyperscale", "size": "Large", "status": "Planned", "mw": "", "notes": "Delaware County expansion"}}, {"type": "Feature", "geometry": {"type": "Point", "coordinates": [-83.56168217240572, 39.64630521543223]}, "properties": {"name": "Amazon AWS \u2013 Beta (Jeffersonville 1)", "operator": "Amazon AWS", "city": "Jeffersonville", "county": "Fayette", "metro": "Columbus", "type": "Hyperscale", "size": "Large", "status": "Construction", "mw": "", "notes": "Jeffersonville campus bldg 1"}}, {"type": "Feature", "geometry": {"type": "Point", "coordinates": [-83.56521183064626, 39.656640877650204]}, "properties": {"name": "Amazon AWS \u2013 Cloud Station (Jeffersonville 2)", "operator": "Amazon AWS", "city": "Jeffersonville", "county": "Fayette", "metro": "Columbus", "type": "Hyperscale", "size": "Extra Large", "status": "Planned", "mw": "", "notes": "Jeffersonville campus bldg 2"}}, {"type": "Feature", "geometry": {"type": "Point", "coordinates": [-82.99874698425192, 39.95504442630502]}, "properties": {"name": "Amazon AWS \u2013 North Hub (Project Cosmos)", "operator": "Amazon AWS", "city": "Columbus", "county": "Franklin", "metro": "Columbus", "type": "Hyperscale", "size": "Medium", "status": "Construction", "mw": "", "notes": "Project Cosmos bldg 1"}}, {"type": "Feature", "geometry": {"type": "Point", "coordinates": [-83.00949145627975, 39.9726805166009]}, "properties": {"name": "Amazon AWS \u2013 Center Plus (Cosmos 2)", "operator": "Amazon AWS", "city": "Columbus", "county": "Franklin", "metro": "Columbus", "type": "Hyperscale", "size": "Large", "status": "Planned", "mw": "", "notes": "Project Cosmos bldg 2"}}, {"type": "Feature", "geometry": {"type": "Point", "coordinates": [-83.55023667472314, 39.65951139544008]}, "properties": {"name": "Amazon AWS \u2013 Station Alpha (Jeffersonville Bldg2)", "operator": "Amazon AWS", "city": "Jeffersonville", "county": "Fayette", "metro": "Columbus", "type": "Hyperscale", "size": "Large", "status": "Construction", "mw": "", "notes": "Jeffersonville expansion"}}, {"type": "Feature", "geometry": {"type": "Point", "coordinates": [-83.56830052752991, 39.66662743134132]}, "properties": {"name": "Amazon AWS \u2013 Hub (Jeffersonville Bldg3)", "operator": "Amazon AWS", "city": "Jeffersonville", "county": "Fayette", "metro": "Columbus", "type": "Hyperscale", "size": "Large", "status": "Construction", "mw": "", "notes": "Jeffersonville expansion"}}, {"type": "Feature", "geometry": {"type": "Point", "coordinates": [-83.54878479445048, 39.646868156502464]}, "properties": {"name": "Amazon AWS \u2013 Station (Jeffersonville Bldg4)", "operator": "Amazon AWS", "city": "Jeffersonville", "county": "Fayette", "metro": "Columbus", "type": "Hyperscale", "size": "Large", "status": "Construction", "mw": "", "notes": "Jeffersonville expansion"}}, {"type": "Feature", "geometry": {"type": "Point", "coordinates": [-83.55816585806403, 39.667882060512596]}, "properties": {"name": "Amazon AWS \u2013 Ridge One (Jeffersonville Bldg5)", "operator": "Amazon AWS", "city": "Jeffersonville", "county": "Fayette", "metro": "Columbus", "type": "Hyperscale", "size": "Large", "status": "Construction", "mw": "", "notes": "Jeffersonville expansion"}}, {"type": "Feature", "geometry": {"type": "Point", "coordinates": [-83.55744752519037, 39.64572157712598]}, "properties": {"name": "Amazon AWS \u2013 Core Park (Jeffersonville Bldg6)", "operator": "Amazon AWS", "city": "Jeffersonville", "county": "Fayette", "metro": "Columbus", "type": "Hyperscale", "size": "Large", "status": "Construction", "mw": "", "notes": "Jeffersonville expansion"}}, {"type": "Feature", "geometry": {"type": "Point", "coordinates": [-83.16476262402446, 40.03563817195842]}, "properties": {"name": "Amazon AWS \u2013 North (Cosgray Rd, Hilliard)", "operator": "Amazon AWS", "city": "Hilliard", "county": "Franklin", "metro": "Columbus", "type": "Hyperscale", "size": "Large", "status": "Operational", "mw": "", "notes": "Cosgray Rd campus; Bloom Energy 73MW fuel cells on-site"}}, {"type": "Feature", "geometry": {"type": "Point", "coordinates": [-82.93671663288167, 39.59368045139633]}, "properties": {"name": "Amazon AWS \u2013 Ultra (9905 State Route)", "operator": "Amazon AWS", "city": "Circleville", "county": "Pickaway", "metro": "Columbus", "type": "Hyperscale", "size": "", "status": "Land Bank", "mw": "", "notes": "Pickaway County farmland acquisition"}}, {"type": "Feature", "geometry": {"type": "Point", "coordinates": [-82.7905290109478, 40.076587362113614]}, "properties": {"name": "Google \u2013 Global Campus (New Albany Bldg 1)", "operator": "Google", "city": "New Albany", "county": "Licking", "metro": "Columbus", "type": "Hyperscale", "size": "Large", "status": "Operational", "mw": "80", "notes": "Original New Albany campus"}}, {"type": "Feature", "geometry": {"type": "Point", "coordinates": [-82.79103939847646, 40.08106769846351]}, "properties": {"name": "Google \u2013 Cloud Ridge (New Albany Bldg 2)", "operator": "Google", "city": "New Albany", "county": "Licking", "metro": "Columbus", "type": "Hyperscale", "size": "Large", "status": "Operational", "mw": "80", "notes": "Montauk Innovations LLC land"}}, {"type": "Feature", "geometry": {"type": "Point", "coordinates": [-82.80024735463884, 40.091471797581065]}, "properties": {"name": "Google \u2013 Edge Plaza (New Albany Bldg 3)", "operator": "Google", "city": "New Albany", "county": "Licking", "metro": "Columbus", "type": "Hyperscale", "size": "Large", "status": "Operational", "mw": "80", "notes": ""}}, {"type": "Feature", "geometry": {"type": "Point", "coordinates": [-82.79734187642387, 40.079883341403765]}, "properties": {"name": "Google \u2013 Global (New Albany Bldg 4)", "operator": "Google", "city": "New Albany", "county": "Licking", "metro": "Columbus", "type": "Hyperscale", "size": "Large", "status": "Operational", "mw": "80", "notes": ""}}, {"type": "Feature", "geometry": {"type": "Point", "coordinates": [-82.78927474269635, 40.080627798293506]}, "properties": {"name": "Google \u2013 Tower Beta (New Albany Bldg 5)", "operator": "Google", "city": "New Albany", "county": "Licking", "metro": "Columbus", "type": "Hyperscale", "size": "Large", "status": "Operational", "mw": "80", "notes": ""}}, {"type": "Feature", "geometry": {"type": "Point", "coordinates": [-82.79749519585712, 40.079153855983414]}, "properties": {"name": "Google \u2013 Central Ridge (New Albany Bldg 6)", "operator": "Google", "city": "New Albany", "county": "Licking", "metro": "Columbus", "type": "Hyperscale", "size": "Large", "status": "Operational", "mw": "80", "notes": ""}}, {"type": "Feature", "geometry": {"type": "Point", "coordinates": [-82.7939698939102, 40.07089941424942]}, "properties": {"name": "Google \u2013 Gamma (New Albany Bldg 7)", "operator": "Google", "city": "New Albany", "county": "Licking", "metro": "Columbus", "type": "Hyperscale", "size": "Large", "status": "Construction", "mw": "", "notes": "Under construction 2026"}}, {"type": "Feature", "geometry": {"type": "Point", "coordinates": [-82.99241598234028, 39.950995050164956]}, "properties": {"name": "Google \u2013 Point Beta (Lockbourne)", "operator": "Google", "city": "Columbus", "county": "Franklin", "metro": "Columbus", "type": "Hyperscale", "size": "Large", "status": "Operational", "mw": "", "notes": "Lockbourne campus bldg 1"}}, {"type": "Feature", "geometry": {"type": "Point", "coordinates": [-82.98822070680447, 39.96700005445475]}, "properties": {"name": "Google \u2013 Park (Lockbourne 2)", "operator": "Google", "city": "Columbus", "county": "Franklin", "metro": "Columbus", "type": "Hyperscale", "size": "Large", "status": "Operational", "mw": "", "notes": "Lockbourne campus bldg 2"}}, {"type": "Feature", "geometry": {"type": "Point", "coordinates": [-83.00849990459656, 39.96562178285789]}, "properties": {"name": "Google \u2013 North (Lockbourne 3)", "operator": "Google", "city": "Columbus", "county": "Franklin", "metro": "Columbus", "type": "Hyperscale", "size": "Large", "status": "Operational", "mw": "", "notes": "Former Hartman Stock Farm site"}}, {"type": "Feature", "geometry": {"type": "Point", "coordinates": [-83.00374210302179, 39.97103446171017]}, "properties": {"name": "Google \u2013 Ridge One (Lockbourne 4)", "operator": "Google", "city": "Columbus", "county": "Franklin", "metro": "Columbus", "type": "Hyperscale", "size": "Large", "status": "Operational", "mw": "", "notes": "Lockbourne campus bldg 4"}}, {"type": "Feature", "geometry": {"type": "Point", "coordinates": [-82.99591929235483, 39.9569700802997]}, "properties": {"name": "Google \u2013 Metro Valley (Lockbourne 5)", "operator": "Google", "city": "Columbus", "county": "Franklin", "metro": "Columbus", "type": "Hyperscale", "size": "Large", "status": "Construction", "mw": "", "notes": "Lockbourne campus bldg 5"}}, {"type": "Feature", "geometry": {"type": "Point", "coordinates": [-82.59733531370073, 39.70346223971526]}, "properties": {"name": "Google \u2013 Cloud Hub (Lancaster)", "operator": "Google", "city": "Lancaster", "county": "Fairfield", "metro": "Columbus", "type": "Hyperscale", "size": "Large", "status": "Operational", "mw": "", "notes": "Lancaster campus bldg 1"}}, {"type": "Feature", "geometry": {"type": "Point", "coordinates": [-82.599548629353, 39.708415571365755]}, "properties": {"name": "Google \u2013 Edge Valley (Lancaster 2)", "operator": "Google", "city": "Lancaster", "county": "Fairfield", "metro": "Columbus", "type": "Hyperscale", "size": "Large", "status": "Operational", "mw": "", "notes": "Lancaster campus bldg 2"}}, {"type": "Feature", "geometry": {"type": "Point", "coordinates": [-82.99843328411569, 39.9698334826846]}, "properties": {"name": "Google \u2013 Metro Park (2565 Harrison Rd)", "operator": "Google", "city": "Columbus", "county": "Franklin", "metro": "Columbus", "type": "Hyperscale", "size": "", "status": "Land Bank", "mw": "", "notes": "Land banked for future expansion"}}, {"type": "Feature", "geometry": {"type": "Point", "coordinates": [-82.79392113036137, 40.08002028321948]}, "properties": {"name": "Meta \u2013 North Plaza (New Albany Campus 1)", "operator": "Meta", "city": "New Albany", "county": "Licking", "metro": "Columbus", "type": "Hyperscale", "size": "Large", "status": "Operational", "mw": "", "notes": "Via Sidecat LLC acquisition"}}, {"type": "Feature", "geometry": {"type": "Point", "coordinates": [-82.7815955495376, 40.078093359386315]}, "properties": {"name": "Meta \u2013 Ultra (New Albany Campus 2)", "operator": "Meta", "city": "New Albany", "county": "Licking", "metro": "Columbus", "type": "Hyperscale", "size": "Large", "status": "Operational", "mw": "", "notes": ""}}, {"type": "Feature", "geometry": {"type": "Point", "coordinates": [-82.7965782525425, 40.0883787688588]}, "properties": {"name": "Meta \u2013 Central (New Albany Campus 3)", "operator": "Meta", "city": "New Albany", "county": "Licking", "metro": "Columbus", "type": "Hyperscale", "size": "Large", "status": "Operational", "mw": "", "notes": ""}}, {"type": "Feature", "geometry": {"type": "Point", "coordinates": [-82.80209544935819, 40.08874747549075]}, "properties": {"name": "Meta \u2013 Park (New Albany Campus 4)", "operator": "Meta", "city": "New Albany", "county": "Licking", "metro": "Columbus", "type": "Hyperscale", "size": "Large", "status": "Operational", "mw": "", "notes": ""}}, {"type": "Feature", "geometry": {"type": "Point", "coordinates": [-82.79601172987297, 40.072688067884]}, "properties": {"name": "Meta \u2013 Hub (New Albany Campus 5)", "operator": "Meta", "city": "New Albany", "county": "Licking", "metro": "Columbus", "type": "Hyperscale", "size": "Large", "status": "Operational", "mw": "", "notes": ""}}, {"type": "Feature", "geometry": {"type": "Point", "coordinates": [-82.79139424173262, 40.07571578671824]}, "properties": {"name": "Meta \u2013 Campus Three (Prometheus Campus)", "operator": "Meta", "city": "New Albany", "county": "Licking", "metro": "Columbus", "type": "Hyperscale", "size": "Extra Large", "status": "Operational", "mw": "", "notes": "$1.36B across 26 land deals"}}, {"type": "Feature", "geometry": {"type": "Point", "coordinates": [-82.79352116688405, 40.08134256993049]}, "properties": {"name": "Meta \u2013 Hub Gamma (Prometheus 2)", "operator": "Meta", "city": "New Albany", "county": "Licking", "metro": "Columbus", "type": "Hyperscale", "size": "Large", "status": "Operational", "mw": "", "notes": ""}}, {"type": "Feature", "geometry": {"type": "Point", "coordinates": [-82.79264246418772, 40.07267329326321]}, "properties": {"name": "Meta \u2013 Core Valley (Prometheus 3)", "operator": "Meta", "city": "New Albany", "county": "Licking", "metro": "Columbus", "type": "Hyperscale", "size": "Large", "status": "Operational", "mw": "", "notes": ""}}, {"type": "Feature", "geometry": {"type": "Point", "coordinates": [-82.78383766311528, 40.08110774807521]}, "properties": {"name": "Meta \u2013 Plaza Plus (Prometheus 4)", "operator": "Meta", "city": "New Albany", "county": "Licking", "metro": "Columbus", "type": "Hyperscale", "size": "Large", "status": "Operational", "mw": "", "notes": ""}}, {"type": "Feature", "geometry": {"type": "Point", "coordinates": [-82.78246251702757, 40.086756747129606]}, "properties": {"name": "Meta \u2013 Park Alpha (Prometheus 5)", "operator": "Meta", "city": "New Albany", "county": "Licking", "metro": "Columbus", "type": "Hyperscale", "size": "Large", "status": "Operational", "mw": "", "notes": ""}}, {"type": "Feature", "geometry": {"type": "Point", "coordinates": [-82.78963873755572, 40.0739901289525]}, "properties": {"name": "Meta \u2013 Cloud Center (Prometheus 6)", "operator": "Meta", "city": "New Albany", "county": "Licking", "metro": "Columbus", "type": "Hyperscale", "size": "Large", "status": "Operational", "mw": "", "notes": ""}}, {"type": "Feature", "geometry": {"type": "Point", "coordinates": [-82.80365519033262, 40.08819662246308]}, "properties": {"name": "Meta \u2013 Plaza Max (Prometheus 7)", "operator": "Meta", "city": "New Albany", "county": "Licking", "metro": "Columbus", "type": "Hyperscale", "size": "Large", "status": "Operational", "mw": "", "notes": ""}}, {"type": "Feature", "geometry": {"type": "Point", "coordinates": [-82.79985979227868, 40.07270291521631]}, "properties": {"name": "Meta \u2013 Park (Prometheus 8)", "operator": "Meta", "city": "New Albany", "county": "Licking", "metro": "Columbus", "type": "Hyperscale", "size": "Large", "status": "Operational", "mw": "", "notes": ""}}, {"type": "Feature", "geometry": {"type": "Point", "coordinates": [-82.799851722324, 40.078739733047556]}, "properties": {"name": "Meta \u2013 Edge Station (Clover Valley Rd)", "operator": "Meta", "city": "New Albany", "county": "Licking", "metro": "Columbus", "type": "Hyperscale", "size": "", "status": "Land Bank", "mw": "", "notes": "Shelby/Miami County site via J5 LLC"}}, {"type": "Feature", "geometry": {"type": "Point", "coordinates": [-82.7898367330605, 40.07114617595098]}, "properties": {"name": "Microsoft Azure \u2013 Tower Prime (3287 Beech Rd)", "operator": "Microsoft Azure", "city": "New Albany", "county": "Licking", "metro": "Columbus", "type": "Hyperscale", "size": "", "status": "In Doubt", "mw": "", "notes": "Status uncertain per Baxtel"}}, {"type": "Feature", "geometry": {"type": "Point", "coordinates": [-82.72827535787565, 40.00238809073811]}, "properties": {"name": "Microsoft Azure \u2013 Point Prime (Pataskala)", "operator": "Microsoft Azure", "city": "Pataskala", "county": "Licking", "metro": "Columbus", "type": "Hyperscale", "size": "", "status": "Land Bank", "mw": "", "notes": "290-acre Pataskala acquisition"}}, {"type": "Feature", "geometry": {"type": "Point", "coordinates": [-82.45106301661119, 40.013704492507685]}, "properties": {"name": "Microsoft Azure \u2013 Ridge Alpha (Heath Campus)", "operator": "Microsoft Azure", "city": "Heath", "county": "Licking", "metro": "Columbus", "type": "Hyperscale", "size": "", "status": "In Doubt", "mw": "", "notes": "Heath campus"}}, {"type": "Feature", "geometry": {"type": "Point", "coordinates": [-82.71694204648435, 40.00760507074288]}, "properties": {"name": "Microsoft Azure \u2013 Metro Plaza (Pataskala 2)", "operator": "Microsoft Azure", "city": "Pataskala", "county": "Licking", "metro": "Columbus", "type": "Hyperscale", "size": "", "status": "Land Bank", "mw": "", "notes": "Second Pataskala parcel"}}, {"type": "Feature", "geometry": {"type": "Point", "coordinates": [-82.9989356060648, 39.97109624062463]}, "properties": {"name": "Cologix Columbus COL1 / COL2", "operator": "Cologix", "city": "Columbus", "county": "Franklin", "metro": "Columbus", "type": "Carrier-Neutral", "size": "Small", "status": "Operational", "mw": "", "notes": "Downtown Columbus carrier hotel"}}, {"type": "Feature", "geometry": {"type": "Point", "coordinates": [-83.00782114638858, 39.96232323728488]}, "properties": {"name": "Cologix Columbus COL3", "operator": "Cologix", "city": "Columbus", "county": "Franklin", "metro": "Columbus", "type": "Carrier-Neutral", "size": "Medium", "status": "Operational", "mw": "", "notes": ""}}, {"type": "Feature", "geometry": {"type": "Point", "coordinates": [-82.99846840154473, 39.96744387547943]}, "properties": {"name": "Cologix Columbus COL4", "operator": "Cologix", "city": "Columbus", "county": "Franklin", "metro": "Columbus", "type": "Carrier-Neutral", "size": "Large", "status": "Operational", "mw": "", "notes": "Expansion phase underway"}}, {"type": "Feature", "geometry": {"type": "Point", "coordinates": [-82.98901699672818, 39.95809426344299]}, "properties": {"name": "Cologix Columbus COL5", "operator": "Cologix", "city": "Columbus", "county": "Franklin", "metro": "Columbus", "type": "Carrier-Neutral", "size": "Small", "status": "Construction", "mw": "", "notes": ""}}, {"type": "Feature", "geometry": {"type": "Point", "coordinates": [-82.99145414476482, 39.95386889395039]}, "properties": {"name": "Cologix COL6", "operator": "Cologix", "city": "Columbus", "county": "Franklin", "metro": "Columbus", "type": "Carrier-Neutral", "size": "Large", "status": "Planned", "mw": "", "notes": ""}}, {"type": "Feature", "geometry": {"type": "Point", "coordinates": [-82.67695215334122, 40.14495355696231]}, "properties": {"name": "Cologix Johnstown COL7", "operator": "Cologix", "city": "Johnstown", "county": "Licking", "metro": "Columbus", "type": "Carrier-Neutral", "size": "Large", "status": "Construction", "mw": "", "notes": "$7B / 800MW campus"}}, {"type": "Feature", "geometry": {"type": "Point", "coordinates": [-82.6920981893302, 40.14609547379865]}, "properties": {"name": "Cologix Johnstown COL8", "operator": "Cologix", "city": "Johnstown", "county": "Licking", "metro": "Columbus", "type": "Carrier-Neutral", "size": "", "status": "Construction", "mw": "", "notes": ""}}, {"type": "Feature", "geometry": {"type": "Point", "coordinates": [-82.68598175189166, 40.1398960621225]}, "properties": {"name": "Cologix Johnstown Expansion", "operator": "Cologix", "city": "Johnstown", "county": "Licking", "metro": "Columbus", "type": "Carrier-Neutral", "size": "Extra Large", "status": "Planned", "mw": "800", "notes": "$7B total investment"}}, {"type": "Feature", "geometry": {"type": "Point", "coordinates": [-82.79972589210718, 40.08314765118011]}, "properties": {"name": "QTS New Albany 1 DC1", "operator": "QTS Data Centers", "city": "New Albany", "county": "Licking", "metro": "Columbus", "type": "Carrier-Neutral", "size": "Large", "status": "Operational", "mw": "", "notes": "QTS campus 1 bldg 1"}}, {"type": "Feature", "geometry": {"type": "Point", "coordinates": [-82.78961683311017, 40.07275610895329]}, "properties": {"name": "QTS New Albany 1 DC2", "operator": "QTS Data Centers", "city": "New Albany", "county": "Licking", "metro": "Columbus", "type": "Carrier-Neutral", "size": "Large", "status": "Operational", "mw": "", "notes": "QTS campus 1 bldg 2"}}, {"type": "Feature", "geometry": {"type": "Point", "coordinates": [-82.793448841369, 40.09269720288175]}, "properties": {"name": "QTS New Albany 2 DC1", "operator": "QTS Data Centers", "city": "New Albany", "county": "Licking", "metro": "Columbus", "type": "Carrier-Neutral", "size": "Large", "status": "Operational", "mw": "", "notes": "QTS campus 2 bldg 1"}}, {"type": "Feature", "geometry": {"type": "Point", "coordinates": [-82.78347527151146, 40.09223906232468]}, "properties": {"name": "QTS New Albany 2 DC2", "operator": "QTS Data Centers", "city": "New Albany", "county": "Licking", "metro": "Columbus", "type": "Carrier-Neutral", "size": "Large", "status": "Operational", "mw": "", "notes": "QTS campus 2 bldg 2"}}, {"type": "Feature", "geometry": {"type": "Point", "coordinates": [-82.79602115247594, 40.090274384377835]}, "properties": {"name": "QTS Babbitt Rd, New Albany", "operator": "QTS Data Centers", "city": "New Albany", "county": "Licking", "metro": "Columbus", "type": "Carrier-Neutral", "size": "Extra Large", "status": "Planned", "mw": "", "notes": "Large expansion parcel"}}, {"type": "Feature", "geometry": {"type": "Point", "coordinates": [-82.78277341854347, 40.0862564095935]}, "properties": {"name": "QTS Miller Road, New Albany", "operator": "QTS Data Centers", "city": "New Albany", "county": "Licking", "metro": "Columbus", "type": "Carrier-Neutral", "size": "Extra Large", "status": "Planned", "mw": "", "notes": "Adjacent to Google campus"}}, {"type": "Feature", "geometry": {"type": "Point", "coordinates": [-82.79044904167063, 40.075115567032064]}, "properties": {"name": "Vantage New Albany OH1", "operator": "Vantage Data Centers", "city": "New Albany", "county": "Licking", "metro": "Columbus", "type": "Carrier-Neutral", "size": "Large", "status": "Operational", "mw": "", "notes": ""}}, {"type": "Feature", "geometry": {"type": "Point", "coordinates": [-82.78482477528722, 40.07233248551762]}, "properties": {"name": "Vantage OH12", "operator": "Vantage Data Centers", "city": "New Albany", "county": "Licking", "metro": "Columbus", "type": "Carrier-Neutral", "size": "Large", "status": "Construction", "mw": "", "notes": ""}}, {"type": "Feature", "geometry": {"type": "Point", "coordinates": [-82.79337730461657, 40.07590999292654]}, "properties": {"name": "Vantage OH13", "operator": "Vantage Data Centers", "city": "New Albany", "county": "Licking", "metro": "Columbus", "type": "Carrier-Neutral", "size": "Large", "status": "Construction", "mw": "", "notes": ""}}, {"type": "Feature", "geometry": {"type": "Point", "coordinates": [-82.53678716648912, 39.915222287104896]}, "properties": {"name": "Vantage Ohio OH-E Campus (Bldg 1)", "operator": "Vantage Data Centers", "city": "Millersport", "county": "Licking", "metro": "Columbus", "type": "Carrier-Neutral", "size": "Extra Large", "status": "Construction", "mw": "", "notes": "Near Millersport OH"}}, {"type": "Feature", "geometry": {"type": "Point", "coordinates": [-82.54099368523576, 39.91265209356822]}, "properties": {"name": "Vantage OH-E Bldg 2", "operator": "Vantage Data Centers", "city": "Millersport", "county": "Licking", "metro": "Columbus", "type": "Carrier-Neutral", "size": "Extra Large", "status": "Planned", "mw": "", "notes": ""}}, {"type": "Feature", "geometry": {"type": "Point", "coordinates": [-82.5301138986266, 39.90434991921776]}, "properties": {"name": "Vantage OH-E Bldg 3", "operator": "Vantage Data Centers", "city": "Millersport", "county": "Licking", "metro": "Columbus", "type": "Carrier-Neutral", "size": "Extra Large", "status": "Planned", "mw": "", "notes": ""}}, {"type": "Feature", "geometry": {"type": "Point", "coordinates": [-82.52527716709162, 39.8935333276845]}, "properties": {"name": "Vantage OH-E Bldg 4", "operator": "Vantage Data Centers", "city": "Millersport", "county": "Licking", "metro": "Columbus", "type": "Carrier-Neutral", "size": "Extra Large", "status": "Planned", "mw": "", "notes": ""}}, {"type": "Feature", "geometry": {"type": "Point", "coordinates": [-82.80205070652907, 40.07498245202829]}, "properties": {"name": "CyrusOne New Albany COL-1", "operator": "CyrusOne", "city": "New Albany", "county": "Licking", "metro": "Columbus", "type": "Carrier-Neutral", "size": "Extra Large", "status": "Construction", "mw": "", "notes": "Large campus under construction"}}, {"type": "Feature", "geometry": {"type": "Point", "coordinates": [-82.69217356008696, 40.157901657000174]}, "properties": {"name": "EdgeConneX Johnstown South Campus", "operator": "EdgeConneX", "city": "Johnstown", "county": "Licking", "metro": "Columbus", "type": "Carrier-Neutral", "size": "Extra Large", "status": "Construction", "mw": "", "notes": "South campus bldg 1"}}, {"type": "Feature", "geometry": {"type": "Point", "coordinates": [-82.68250467567213, 40.15611258075455]}, "properties": {"name": "EdgeConneX Johnstown South 2", "operator": "EdgeConneX", "city": "Johnstown", "county": "Licking", "metro": "Columbus", "type": "Carrier-Neutral", "size": "Extra Large", "status": "Planned", "mw": "", "notes": "South campus bldg 2"}}, {"type": "Feature", "geometry": {"type": "Point", "coordinates": [-82.6929543412191, 40.142162472721594]}, "properties": {"name": "EdgeConneX Johnstown North Campus", "operator": "EdgeConneX", "city": "Johnstown", "county": "Licking", "metro": "Columbus", "type": "Carrier-Neutral", "size": "", "status": "Land Bank", "mw": "", "notes": "Land banked for future build"}}, {"type": "Feature", "geometry": {"type": "Point", "coordinates": [-82.96551907464644, 39.72286357442711]}, "properties": {"name": "EdgeConneX Ashville, Ohio", "operator": "EdgeConneX", "city": "Ashville", "county": "Pickaway", "metro": "Columbus", "type": "Carrier-Neutral", "size": "Large", "status": "Planned", "mw": "", "notes": "Rural Pickaway County site"}}, {"type": "Feature", "geometry": {"type": "Point", "coordinates": [-82.80008434523252, 40.091431508604174]}, "properties": {"name": "STACK Infrastructure New Albany NAL01", "operator": "STACK Infrastructure", "city": "New Albany", "county": "Licking", "metro": "Columbus", "type": "HPC", "size": "Small", "status": "Operational", "mw": "", "notes": "Former Nationwide Insurance campus"}}, {"type": "Feature", "geometry": {"type": "Point", "coordinates": [-82.79987244388843, 40.08155851089619]}, "properties": {"name": "STACK Infrastructure NAL01B", "operator": "STACK Infrastructure", "city": "New Albany", "county": "Licking", "metro": "Columbus", "type": "HPC", "size": "Large", "status": "Construction", "mw": "", "notes": "Expansion of NAL01"}}, {"type": "Feature", "geometry": {"type": "Point", "coordinates": [-82.99678860593914, 39.951295235684775]}, "properties": {"name": "Lincoln Rackhouse: Silicon Heartland Innovation Park", "operator": "Lincoln Property Co.", "city": "Columbus", "county": "Franklin", "metro": "Columbus", "type": "Real Estate", "size": "Extra Large", "status": "Construction", "mw": "", "notes": "Multi-tenant data center park"}}, {"type": "Feature", "geometry": {"type": "Point", "coordinates": [-82.99647204590941, 39.961440444161845]}, "properties": {"name": "5CDC Columbus CMH01", "operator": "5C Data Centers", "city": "Columbus", "county": "Franklin", "metro": "Columbus", "type": "Carrier-Neutral", "size": "Extra Large", "status": "Operational", "mw": "", "notes": ""}}, {"type": "Feature", "geometry": {"type": "Point", "coordinates": [-82.80230751973946, 40.07045672637243]}, "properties": {"name": "DBT Data: Jug & Mink Project", "operator": "DBT Data", "city": "New Albany", "county": "Licking", "metro": "Columbus", "type": "Real Estate", "size": "Large", "status": "Planned", "mw": "", "notes": "1M sq ft campus planned"}}, {"type": "Feature", "geometry": {"type": "Point", "coordinates": [-82.99764187257188, 39.972258738162125]}, "properties": {"name": "DBT Data: 2214 Harrison Rd", "operator": "DBT Data", "city": "Columbus", "county": "Franklin", "metro": "Columbus", "type": "Real Estate", "size": "", "status": "Land Bank", "mw": "", "notes": "Land banked parcel"}}, {"type": "Feature", "geometry": {"type": "Point", "coordinates": [-82.79905922513692, 40.09080139725974]}, "properties": {"name": "Compass New Albany", "operator": "Compass Datacenters", "city": "New Albany", "county": "Licking", "metro": "Columbus", "type": "Carrier-Neutral", "size": "Extra Small", "status": "Operational", "mw": "", "notes": ""}}, {"type": "Feature", "geometry": {"type": "Point", "coordinates": [-82.88772646652541, 39.86654184174422]}, "properties": {"name": "Compass Groveport AEP II", "operator": "Compass Datacenters", "city": "Groveport", "county": "Franklin", "metro": "Columbus", "type": "Carrier-Neutral", "size": "Small", "status": "Operational", "mw": "", "notes": "Adjacent to AEP facilities"}}, {"type": "Feature", "geometry": {"type": "Point", "coordinates": [-82.71552633060566, 39.99856981907708]}, "properties": {"name": "Aligned: Pataskala", "operator": "Aligned", "city": "Pataskala", "county": "Licking", "metro": "Columbus", "type": "Carrier-Neutral", "size": "", "status": "Land Bank", "mw": "", "notes": "Land banked for future build"}}, {"type": "Feature", "geometry": {"type": "Point", "coordinates": [-83.06792044469017, 40.010660818168425]}, "properties": {"name": "Expedient Upper Arlington (CMH1)", "operator": "Expedient", "city": "Upper Arlington", "county": "Franklin", "metro": "Columbus", "type": "Carrier-Neutral", "size": "Extra Small", "status": "Operational", "mw": "", "notes": ""}}, {"type": "Feature", "geometry": {"type": "Point", "coordinates": [-83.10733130312197, 40.10126634644295]}, "properties": {"name": "Expedient Dublin (CMH2)", "operator": "Expedient", "city": "Dublin", "county": "Franklin", "metro": "Columbus", "type": "Carrier-Neutral", "size": "Small", "status": "Operational", "mw": "", "notes": ""}}, {"type": "Feature", "geometry": {"type": "Point", "coordinates": [-83.00314027952233, 40.18497467060544]}, "properties": {"name": "Expedient Lewis Center (CMH3)", "operator": "Expedient", "city": "Lewis Center", "county": "Delaware", "metro": "Columbus", "type": "Carrier-Neutral", "size": "Small", "status": "Operational", "mw": "", "notes": ""}}, {"type": "Feature", "geometry": {"type": "Point", "coordinates": [-82.99232316036678, 39.95677044453128]}, "properties": {"name": "Lumen: 226 North Fifth", "operator": "Lumen Technologies", "city": "Columbus", "county": "Franklin", "metro": "Columbus", "type": "Carrier", "size": "Extra Small", "status": "Operational", "mw": "", "notes": "Downtown Columbus carrier hotel"}}, {"type": "Feature", "geometry": {"type": "Point", "coordinates": [-83.0010146695741, 39.9590982918541]}, "properties": {"name": "Lumen: 266 North 5th", "operator": "Lumen Technologies", "city": "Columbus", "county": "Franklin", "metro": "Columbus", "type": "Carrier", "size": "Extra Small", "status": "Operational", "mw": "", "notes": ""}}, {"type": "Feature", "geometry": {"type": "Point", "coordinates": [-82.99922350608307, 39.961051983610595]}, "properties": {"name": "Lumen: 580 North 4th", "operator": "Lumen Technologies", "city": "Columbus", "county": "Franklin", "metro": "Columbus", "type": "Carrier", "size": "", "status": "Operational", "mw": "", "notes": ""}}, {"type": "Feature", "geometry": {"type": "Point", "coordinates": [-83.00602956274882, 39.9608188501459]}, "properties": {"name": "Cogent: 240 North 5th", "operator": "Cogent Communications", "city": "Columbus", "county": "Franklin", "metro": "Columbus", "type": "Carrier", "size": "Extra Small", "status": "Operational", "mw": "", "notes": ""}}, {"type": "Feature", "geometry": {"type": "Point", "coordinates": [-82.99578875087917, 39.96526884086852]}, "properties": {"name": "WOW! Business: 226 N 5th", "operator": "WOW! Business", "city": "Columbus", "county": "Franklin", "metro": "Columbus", "type": "Carrier", "size": "Extra Small", "status": "Operational", "mw": "", "notes": ""}}, {"type": "Feature", "geometry": {"type": "Point", "coordinates": [-82.99812575540649, 39.96301718899527]}, "properties": {"name": "US Signal Columbus", "operator": "US Signal", "city": "Columbus", "county": "Franklin", "metro": "Columbus", "type": "Carrier", "size": "Extra Small", "status": "Operational", "mw": "", "notes": ""}}, {"type": "Feature", "geometry": {"type": "Point", "coordinates": [-83.0009577171101, 39.95093679778247]}, "properties": {"name": "Crown Castle 101 E Town", "operator": "Crown Castle", "city": "Columbus", "county": "Franklin", "metro": "Columbus", "type": "Carrier", "size": "Extra Small", "status": "Operational", "mw": "", "notes": ""}}, {"type": "Feature", "geometry": {"type": "Point", "coordinates": [-82.99999744915719, 39.953842472037415]}, "properties": {"name": "CityNet Columbus", "operator": "CityNet", "city": "Columbus", "county": "Franklin", "metro": "Columbus", "type": "Carrier", "size": "Extra Small", "status": "Operational", "mw": "", "notes": ""}}, {"type": "Feature", "geometry": {"type": "Point", "coordinates": [-82.99412030529686, 39.949236244146725]}, "properties": {"name": "Cologix Columbus COL1 (Carrier Hotel)", "operator": "Cologix", "city": "Columbus", "county": "Franklin", "metro": "Columbus", "type": "Carrier-Neutral", "size": "Small", "status": "Operational", "mw": "", "notes": "See row 93"}}, {"type": "Feature", "geometry": {"type": "Point", "coordinates": [-83.00851970122513, 39.96771818255276]}, "properties": {"name": "DataCanopy Columbus", "operator": "DataCanopy", "city": "Columbus", "county": "Franklin", "metro": "Columbus", "type": "Carrier-Neutral", "size": "Medium", "status": "Operational", "mw": "", "notes": ""}}, {"type": "Feature", "geometry": {"type": "Point", "coordinates": [-83.01007549876326, 39.96161570158816]}, "properties": {"name": "DataCanopy Columbus 2", "operator": "DataCanopy", "city": "Columbus", "county": "Franklin", "metro": "Columbus", "type": "Carrier-Neutral", "size": "Large", "status": "Construction", "mw": "", "notes": ""}}, {"type": "Feature", "geometry": {"type": "Point", "coordinates": [-82.99447543673996, 39.96318212254519]}, "properties": {"name": "CENTRA: 180 East Broad (CMH01)", "operator": "CENTRA", "city": "Columbus", "county": "Franklin", "metro": "Columbus", "type": "Carrier-Neutral", "size": "Small", "status": "Operational", "mw": "", "notes": "Former Borden Building downtown"}}, {"type": "Feature", "geometry": {"type": "Point", "coordinates": [-82.99036639099963, 39.97095290772627]}, "properties": {"name": "Centersquare Columbus CMH1", "operator": "Csquare", "city": "Columbus", "county": "Franklin", "metro": "Columbus", "type": "Carrier-Neutral", "size": "Small", "status": "Operational", "mw": "", "notes": "8180 Green Meadows Dr"}}, {"type": "Feature", "geometry": {"type": "Point", "coordinates": [-82.99989451274607, 39.959958413321125]}, "properties": {"name": "Edged Energy Columbus CMH01", "operator": "Edged Energy", "city": "Columbus", "county": "Franklin", "metro": "Columbus", "type": "Carrier-Neutral", "size": "Small", "status": "Operational", "mw": "", "notes": ""}}, {"type": "Feature", "geometry": {"type": "Point", "coordinates": [-82.99145421245883, 39.970091417340775]}, "properties": {"name": "eNET Columbus", "operator": "eNET", "city": "Columbus", "county": "Franklin", "metro": "Columbus", "type": "Carrier-Neutral", "size": "Extra Small", "status": "Operational", "mw": "", "notes": ""}}, {"type": "Feature", "geometry": {"type": "Point", "coordinates": [-82.9958402838597, 39.95240004400131]}, "properties": {"name": "CeraNet Columbus", "operator": "CeraNet", "city": "Columbus", "county": "Franklin", "metro": "Columbus", "type": "Carrier-Neutral", "size": "Extra Small", "status": "Operational", "mw": "", "notes": ""}}, {"type": "Feature", "geometry": {"type": "Point", "coordinates": [-83.12252885847204, 40.10172575712965]}, "properties": {"name": "DartPoints: Dublin, OH", "operator": "DartPoints", "city": "Dublin", "county": "Franklin", "metro": "Columbus", "type": "Carrier-Neutral", "size": "Extra Small", "status": "Operational", "mw": "", "notes": ""}}, {"type": "Feature", "geometry": {"type": "Point", "coordinates": [-82.99553527262294, 39.95888404210262]}, "properties": {"name": "Racksquared 325 E Spring St", "operator": "Racksquared", "city": "Columbus", "county": "Franklin", "metro": "Columbus", "type": "Carrier-Neutral", "size": "Extra Small", "status": "Operational", "mw": "", "notes": ""}}, {"type": "Feature", "geometry": {"type": "Point", "coordinates": [-83.00475870213916, 39.95090658017959]}, "properties": {"name": "Racksquared 2560 Value Way", "operator": "Racksquared", "city": "Columbus", "county": "Franklin", "metro": "Columbus", "type": "Carrier-Neutral", "size": "Extra Small", "status": "Operational", "mw": "", "notes": ""}}, {"type": "Feature", "geometry": {"type": "Point", "coordinates": [-82.98931498018523, 39.968971373807136]}, "properties": {"name": "Kyndryl Columbus", "operator": "Kyndryl", "city": "Columbus", "county": "Franklin", "metro": "Columbus", "type": "Content", "size": "Small", "status": "Operational", "mw": "", "notes": "Former IBM facility"}}, {"type": "Feature", "geometry": {"type": "Point", "coordinates": [-82.78409644828946, 40.086157769645986]}, "properties": {"name": "Compugen New Albany", "operator": "Compugen", "city": "New Albany", "county": "Licking", "metro": "Columbus", "type": "MSP", "size": "Extra Small", "status": "Operational", "mw": "", "notes": ""}}, {"type": "Feature", "geometry": {"type": "Point", "coordinates": [-82.93170518819794, 40.13736367974692]}, "properties": {"name": "WeConnect Westerville", "operator": "WeConnect", "city": "Westerville", "county": "Franklin", "metro": "Columbus", "type": "Carrier-Neutral", "size": "Extra Small", "status": "Operational", "mw": "", "notes": ""}}, {"type": "Feature", "geometry": {"type": "Point", "coordinates": [-83.16788398820687, 40.04554082421491]}, "properties": {"name": "Connect Data Centers: Hilliard, OH", "operator": "Connect DC", "city": "Hilliard", "county": "Franklin", "metro": "Columbus", "type": "Real Estate", "size": "Small", "status": "Operational", "mw": "", "notes": ""}}, {"type": "Feature", "geometry": {"type": "Point", "coordinates": [-82.7822680509704, 40.074075415353015]}, "properties": {"name": "Discover Financial Services New Albany", "operator": "Discover Financial", "city": "New Albany", "county": "Licking", "metro": "Columbus", "type": "Enterprise", "size": "Small", "status": "Operational", "mw": "", "notes": "Corporate enterprise DC"}}, {"type": "Feature", "geometry": {"type": "Point", "coordinates": [-82.99785472284888, 39.963141271037344]}, "properties": {"name": "TJX Corporate Techno", "operator": "TJX Companies", "city": "Columbus", "county": "Franklin", "metro": "Columbus", "type": "Enterprise", "size": "Small", "status": "Operational", "mw": "", "notes": ""}}, {"type": "Feature", "geometry": {"type": "Point", "coordinates": [-82.7830652669775, 40.080906707492645]}, "properties": {"name": "Karis Critical: New Albany, OH", "operator": "Karis Critical", "city": "New Albany", "county": "Licking", "metro": "Columbus", "type": "Private Equity", "size": "", "status": "Land Bank", "mw": "", "notes": "Site acquisition stage"}}, {"type": "Feature", "geometry": {"type": "Point", "coordinates": [-83.20150478964557, 39.9538794414206]}, "properties": {"name": "Karis: Galloway, Ohio", "operator": "Karis Critical", "city": "Galloway", "county": "Franklin", "metro": "Columbus", "type": "Private Equity", "size": "", "status": "Land Bank", "mw": "", "notes": ""}}, {"type": "Feature", "geometry": {"type": "Point", "coordinates": [-82.98690822709433, 39.96562205535367]}, "properties": {"name": "Stream Data Centers Columbus", "operator": "Stream Data Centers", "city": "Columbus", "county": "Franklin", "metro": "Columbus", "type": "Carrier-Neutral", "size": "", "status": "Land Bank", "mw": "", "notes": ""}}, {"type": "Feature", "geometry": {"type": "Point", "coordinates": [-83.74825910282456, 40.10586847716045]}, "properties": {"name": "Thor Equities: Urbana, Ohio", "operator": "Thor Equities", "city": "Urbana", "county": "Champaign", "metro": "Columbus", "type": "Real Estate", "size": "", "status": "In Doubt", "mw": "", "notes": "Rural Champaign County project"}}, {"type": "Feature", "geometry": {"type": "Point", "coordinates": [-82.51916362644444, 40.749340888316205]}, "properties": {"name": "MicroLink Data Centers: Mansfield Campus", "operator": "MicroLink", "city": "Mansfield", "county": "Richland", "metro": "Columbus", "type": "Carrier-Neutral", "size": "Extra Large", "status": "Land Bank", "mw": "", "notes": "Richland County mega-campus planned"}}, {"type": "Feature", "geometry": {"type": "Point", "coordinates": [-82.79119200634337, 40.08163704167679]}, "properties": {"name": "Intel Ohio One (New Albany Fab + DC)", "operator": "Intel", "city": "New Albany", "county": "Licking", "metro": "Columbus", "type": "Enterprise", "size": "", "status": "Construction", "mw": "", "notes": "$20B investment; 10-yr delay to 2030/31; formerly New Albany Company land"}}, {"type": "Feature", "geometry": {"type": "Point", "coordinates": [-82.98912936681015, 39.95048890008154]}, "properties": {"name": "BIT Mining Ohio", "operator": "BIT Mining", "city": "Columbus", "county": "Franklin", "metro": "Columbus", "type": "Crypto Mining", "size": "", "status": "Operational", "mw": "", "notes": "Largest sq ft facility in Ohio"}}, {"type": "Feature", "geometry": {"type": "Point", "coordinates": [-81.69542948905686, 41.50029409650944]}, "properties": {"name": "H5 Cleveland Technology Center (CTC)", "operator": "H5 Data Centers", "city": "Cleveland", "county": "Cuyahoga", "metro": "Cleveland", "type": "Carrier-Neutral", "size": "Small", "status": "Operational", "mw": "4", "notes": "1525\u20131625 Rockwell Ave carrier hotel"}}, {"type": "Feature", "geometry": {"type": "Point", "coordinates": [-81.69917512490852, 41.489588037611476]}, "properties": {"name": "DataBank Cleveland CLE1", "operator": "DataBank", "city": "Cleveland", "county": "Cuyahoga", "metro": "Cleveland", "type": "Carrier-Neutral", "size": "Extra Small", "status": "Operational", "mw": "", "notes": ""}}, {"type": "Feature", "geometry": {"type": "Point", "coordinates": [-81.68331616146843, 41.487703800140935]}, "properties": {"name": "DataBank Cleveland (secondary)", "operator": "DataBank", "city": "Cleveland", "county": "Cuyahoga", "metro": "Cleveland", "type": "Carrier-Neutral", "size": "Extra Small", "status": "Operational", "mw": "", "notes": "Second DataBank facility"}}, {"type": "Feature", "geometry": {"type": "Point", "coordinates": [-81.60322207975261, 41.409789144509865]}, "properties": {"name": "Expedient Garfield Heights 1", "operator": "Expedient", "city": "Garfield Heights", "county": "Cuyahoga", "metro": "Cleveland", "type": "Carrier-Neutral", "size": "Small", "status": "Operational", "mw": "", "notes": ""}}, {"type": "Feature", "geometry": {"type": "Point", "coordinates": [-81.61559072865337, 41.410991893736245]}, "properties": {"name": "Expedient Garfield Heights 2", "operator": "Expedient", "city": "Garfield Heights", "county": "Cuyahoga", "metro": "Cleveland", "type": "Carrier-Neutral", "size": "Extra Small", "status": "Operational", "mw": "", "notes": ""}}, {"type": "Feature", "geometry": {"type": "Point", "coordinates": [-81.69399113042901, 41.5051934310284]}, "properties": {"name": "Aligned: Cleveland NEO-01", "operator": "Aligned", "city": "Cleveland", "county": "Cuyahoga", "metro": "Cleveland", "type": "Carrier-Neutral", "size": "Extra Large", "status": "Construction", "mw": "96", "notes": "Q1 2026 target; $40B Aligned sold to BlackRock/MGX Oct 2025"}}, {"type": "Feature", "geometry": {"type": "Point", "coordinates": [-81.69140669064967, 41.493432660005055]}, "properties": {"name": "Lumen Cleveland 4", "operator": "Lumen Technologies", "city": "Cleveland", "county": "Cuyahoga", "metro": "Cleveland", "type": "Carrier", "size": "Extra Small", "status": "Operational", "mw": "", "notes": ""}}, {"type": "Feature", "geometry": {"type": "Point", "coordinates": [-81.68456223350456, 41.50619763260096]}, "properties": {"name": "Lumen Cleveland (4000 Chester)", "operator": "Lumen Technologies", "city": "Cleveland", "county": "Cuyahoga", "metro": "Cleveland", "type": "Carrier", "size": "Extra Small", "status": "Operational", "mw": "", "notes": ""}}, {"type": "Feature", "geometry": {"type": "Point", "coordinates": [-81.692916174724, 41.506057399106815]}, "properties": {"name": "Lumen Cleveland 5", "operator": "Lumen Technologies", "city": "Cleveland", "county": "Cuyahoga", "metro": "Cleveland", "type": "Carrier", "size": "Extra Small", "status": "Operational", "mw": "", "notes": ""}}, {"type": "Feature", "geometry": {"type": "Point", "coordinates": [-81.52586429727681, 41.07786047655228]}, "properties": {"name": "Lumen Akron 2", "operator": "Lumen Technologies", "city": "Akron", "county": "Summit", "metro": "Cleveland", "type": "Carrier", "size": "Extra Small", "status": "Operational", "mw": "", "notes": ""}}, {"type": "Feature", "geometry": {"type": "Point", "coordinates": [-81.69035382264511, 41.49507904137739]}, "properties": {"name": "Cogent: 1621 Euclid", "operator": "Cogent Communications", "city": "Cleveland", "county": "Cuyahoga", "metro": "Cleveland", "type": "Carrier", "size": "Extra Small", "status": "Operational", "mw": "", "notes": "Downtown Cleveland carrier pop"}}, {"type": "Feature", "geometry": {"type": "Point", "coordinates": [-81.69578773310485, 41.50659847312057]}, "properties": {"name": "Verizon: 1525 Rockwell", "operator": "Verizon Enterprise", "city": "Cleveland", "county": "Cuyahoga", "metro": "Cleveland", "type": "Carrier", "size": "Extra Small", "status": "Operational", "mw": "", "notes": "Inside H5 CTC facility"}}, {"type": "Feature", "geometry": {"type": "Point", "coordinates": [-81.52975640045564, 41.08005502546453]}, "properties": {"name": "Ark: Akron", "operator": "Ark", "city": "Akron", "county": "Summit", "metro": "Cleveland", "type": "Carrier-Neutral", "size": "Small", "status": "Operational", "mw": "", "notes": ""}}, {"type": "Feature", "geometry": {"type": "Point", "coordinates": [-81.37198152533581, 40.78761278006832]}, "properties": {"name": "Ark: Canton", "operator": "Ark", "city": "Canton", "county": "Stark", "metro": "Cleveland", "type": "Carrier-Neutral", "size": "Extra Small", "status": "Operational", "mw": "", "notes": ""}}, {"type": "Feature", "geometry": {"type": "Point", "coordinates": [-81.63853512917395, 41.38102816417518]}, "properties": {"name": "Ark: Independence", "operator": "Ark", "city": "Independence", "county": "Cuyahoga", "metro": "Cleveland", "type": "Carrier-Neutral", "size": "Extra Small", "status": "Operational", "mw": "", "notes": ""}}, {"type": "Feature", "geometry": {"type": "Point", "coordinates": [-81.68344541929544, 41.510066923805354]}, "properties": {"name": "Fusion Connect Cleveland", "operator": "Fusion Connect", "city": "Cleveland", "county": "Cuyahoga", "metro": "Cleveland", "type": "MSP", "size": "Extra Small", "status": "Operational", "mw": "", "notes": ""}}, {"type": "Feature", "geometry": {"type": "Point", "coordinates": [-81.63404372903263, 41.32413603380737]}, "properties": {"name": "Cleveland Clinic Brecksville", "operator": "Cleveland Clinic", "city": "Brecksville", "county": "Cuyahoga", "metro": "Cleveland", "type": "Enterprise", "size": "Small", "status": "Operational", "mw": "", "notes": "Corporate enterprise DC"}}, {"type": "Feature", "geometry": {"type": "Point", "coordinates": [-81.6902148874024, 41.49076175534964]}, "properties": {"name": "StratCap: 4100 W 150th", "operator": "StratCap Data Centers", "city": "Cleveland", "county": "Cuyahoga", "metro": "Cleveland", "type": "Real Estate", "size": "Small", "status": "Operational", "mw": "", "notes": ""}}, {"type": "Feature", "geometry": {"type": "Point", "coordinates": [-81.64877251008912, 41.03094260573962]}, "properties": {"name": "Quantum HPC: Norton DC", "operator": "Quantum HPC", "city": "Norton", "county": "Summit", "metro": "Cleveland", "type": "Real Estate", "size": "", "status": "Withdrawn", "mw": "", "notes": "Project withdrawn"}}, {"type": "Feature", "geometry": {"type": "Point", "coordinates": [-81.70079718504546, 41.49814958076838]}, "properties": {"name": "SecureData 365 Cleveland", "operator": "SecureData 365", "city": "Cleveland", "county": "Cuyahoga", "metro": "Cleveland", "type": "Carrier-Neutral", "size": "", "status": "Decommissioned", "mw": "", "notes": "No longer active"}}, {"type": "Feature", "geometry": {"type": "Point", "coordinates": [-80.85606140115509, 41.15539066452227]}, "properties": {"name": "Bristolville 25 LLC Data Center (Lordstown)", "operator": "Undisclosed", "city": "Lordstown", "county": "Trumbull", "metro": "NE Ohio", "type": "Hyperscale", "size": "Extra Large", "status": "Planned", "mw": "", "notes": "$3.6B; 133 acres; Ohio Supreme Court litigation 2025"}}, {"type": "Feature", "geometry": {"type": "Point", "coordinates": [-81.24862819613905, 41.15272202984234]}, "properties": {"name": "Ravenna SR-14 Data Center Site", "operator": "Undisclosed", "city": "Ravenna", "county": "Portage", "metro": "NE Ohio", "type": "Hyperscale", "size": "", "status": "Land Bank", "mw": "", "notes": "12-month moratorium adopted April 20, 2026"}}, {"type": "Feature", "geometry": {"type": "Point", "coordinates": [-84.37098598310118, 39.24160537311662]}, "properties": {"name": "CyrusOne Cincinnati-Blue Ash", "operator": "CyrusOne", "city": "Blue Ash", "county": "Hamilton", "metro": "Cincinnati", "type": "Carrier-Neutral", "size": "Extra Small", "status": "Operational", "mw": "", "notes": ""}}, {"type": "Feature", "geometry": {"type": "Point", "coordinates": [-84.51404981818254, 39.09931519166129]}, "properties": {"name": "CyrusOne Cincinnati 7th Street", "operator": "CyrusOne", "city": "Cincinnati", "county": "Hamilton", "metro": "Cincinnati", "type": "Carrier-Neutral", "size": "Small", "status": "Operational", "mw": "12", "notes": "Largest in Cincinnati market"}}, {"type": "Feature", "geometry": {"type": "Point", "coordinates": [-84.51259117267062, 39.099529699746775]}, "properties": {"name": "CyrusOne Cincinnati-Goldcoast", "operator": "CyrusOne", "city": "Cincinnati", "county": "Hamilton", "metro": "Cincinnati", "type": "Carrier-Neutral", "size": "Extra Small", "status": "Operational", "mw": "", "notes": ""}}, {"type": "Feature", "geometry": {"type": "Point", "coordinates": [-84.55308301193385, 39.4064519339872]}, "properties": {"name": "CyrusOne Cincinnati-Hamilton", "operator": "CyrusOne", "city": "Hamilton", "county": "Butler", "metro": "Cincinnati", "type": "Carrier-Neutral", "size": "Small", "status": "Operational", "mw": "", "notes": ""}}, {"type": "Feature", "geometry": {"type": "Point", "coordinates": [-84.19684224679324, 39.4324023910916]}, "properties": {"name": "CyrusOne Cincinnati-Lebanon", "operator": "CyrusOne", "city": "Lebanon", "county": "Warren", "metro": "Cincinnati", "type": "Carrier-Neutral", "size": "Small", "status": "Operational", "mw": "", "notes": ""}}, {"type": "Feature", "geometry": {"type": "Point", "coordinates": [-84.30365787852968, 39.34989009434615]}, "properties": {"name": "CyrusOne Cincinnati-Mason", "operator": "CyrusOne", "city": "Mason", "county": "Warren", "metro": "Cincinnati", "type": "Carrier-Neutral", "size": "Extra Small", "status": "Operational", "mw": "", "notes": ""}}, {"type": "Feature", "geometry": {"type": "Point", "coordinates": [-84.50511042829403, 39.10932020462648]}, "properties": {"name": "H5 Cincinnati 360 Gest", "operator": "H5 Data Centers", "city": "Cincinnati", "county": "Hamilton", "metro": "Cincinnati", "type": "Carrier-Neutral", "size": "Small", "status": "Operational", "mw": "", "notes": ""}}, {"type": "Feature", "geometry": {"type": "Point", "coordinates": [-84.51681527255408, 39.100060068493946]}, "properties": {"name": "H5 Cincinnati II", "operator": "H5 Data Centers", "city": "Cincinnati", "county": "Hamilton", "metro": "Cincinnati", "type": "Carrier-Neutral", "size": "Small", "status": "Operational", "mw": "", "notes": ""}}, {"type": "Feature", "geometry": {"type": "Point", "coordinates": [-84.50273204196725, 39.10458302616986]}, "properties": {"name": "Lumen Cincinnati 4", "operator": "Lumen Technologies", "city": "Cincinnati", "county": "Hamilton", "metro": "Cincinnati", "type": "Carrier", "size": "Extra Small", "status": "Operational", "mw": "", "notes": ""}}, {"type": "Feature", "geometry": {"type": "Point", "coordinates": [-84.52238686127995, 39.11065739687727]}, "properties": {"name": "Lumen Cincinnati (1428 West 8th)", "operator": "Lumen Technologies", "city": "Cincinnati", "county": "Hamilton", "metro": "Cincinnati", "type": "Carrier", "size": "Extra Small", "status": "Operational", "mw": "", "notes": ""}}, {"type": "Feature", "geometry": {"type": "Point", "coordinates": [-84.5229885878598, 39.105392449604686]}, "properties": {"name": "Lumen Cincinnati 1 (400 Pike)", "operator": "Lumen Technologies", "city": "Cincinnati", "county": "Hamilton", "metro": "Cincinnati", "type": "Carrier", "size": "Small", "status": "Operational", "mw": "", "notes": ""}}, {"type": "Feature", "geometry": {"type": "Point", "coordinates": [-84.50693429464424, 39.1066855867578]}, "properties": {"name": "Flexential Cincinnati 1 and 2", "operator": "Flexential", "city": "Cincinnati", "county": "Hamilton", "metro": "Cincinnati", "type": "Carrier-Neutral", "size": "Small", "status": "Operational", "mw": "", "notes": ""}}, {"type": "Feature", "geometry": {"type": "Point", "coordinates": [-84.52081925877988, 39.104057039180155]}, "properties": {"name": "DataCanopy: Cincinnati, OH", "operator": "DataCanopy", "city": "Cincinnati", "county": "Hamilton", "metro": "Cincinnati", "type": "Carrier-Neutral", "size": "Extra Small", "status": "Operational", "mw": "", "notes": ""}}, {"type": "Feature", "geometry": {"type": "Point", "coordinates": [-84.506924686644, 39.09237148715956]}, "properties": {"name": "DartPoints: Cincinnati, OH", "operator": "DartPoints", "city": "Cincinnati", "county": "Hamilton", "metro": "Cincinnati", "type": "Carrier-Neutral", "size": "Small", "status": "Construction", "mw": "1", "notes": "Q1 2027 target"}}, {"type": "Feature", "geometry": {"type": "Point", "coordinates": [-84.51456275060534, 39.09936189876991]}, "properties": {"name": "Encore Technologies BLU1", "operator": "Encore Technologies", "city": "Cincinnati", "county": "Hamilton", "metro": "Cincinnati", "type": "MSP", "size": "Small", "status": "Operational", "mw": "", "notes": ""}}, {"type": "Feature", "geometry": {"type": "Point", "coordinates": [-84.5191172726033, 39.092194623250045]}, "properties": {"name": "Prologis: Cincinnati, Ohio", "operator": "Prologis", "city": "Cincinnati", "county": "Hamilton", "metro": "Cincinnati", "type": "Real Estate", "size": "Large", "status": "Planned", "mw": "", "notes": ""}}, {"type": "Feature", "geometry": {"type": "Point", "coordinates": [-84.56548561069602, 39.389110454210225]}, "properties": {"name": "Logistix: Hamilton, OH", "operator": "Logistix Property Group", "city": "Hamilton", "county": "Butler", "metro": "Cincinnati", "type": "Real Estate", "size": "Large", "status": "Planned", "mw": "", "notes": ""}}, {"type": "Feature", "geometry": {"type": "Point", "coordinates": [-84.45922526197393, 39.48693315778712]}, "properties": {"name": "Prologis Project Mila (Trenton)", "operator": "Prologis", "city": "Trenton", "county": "Butler", "metro": "Cincinnati", "type": "Hyperscale", "size": "Extra Large", "status": "Approved", "mw": "250", "notes": "141 acres; approved March 2026"}}, {"type": "Feature", "geometry": {"type": "Point", "coordinates": [-84.18338940853617, 39.74907819637817]}, "properties": {"name": "Lumen Dayton 3", "operator": "Lumen Technologies", "city": "Dayton", "county": "Montgomery", "metro": "Dayton", "type": "Carrier", "size": "Extra Small", "status": "Operational", "mw": "", "notes": ""}}, {"type": "Feature", "geometry": {"type": "Point", "coordinates": [-84.20154899488834, 39.75642575567845]}, "properties": {"name": "Lumen Dayton", "operator": "Lumen Technologies", "city": "Dayton", "county": "Montgomery", "metro": "Dayton", "type": "Carrier", "size": "Extra Small", "status": "Operational", "mw": "", "notes": ""}}, {"type": "Feature", "geometry": {"type": "Point", "coordinates": [-84.18621099807646, 39.75732600348265]}, "properties": {"name": "Iron Mountain Columbus Ohio", "operator": "Iron Mountain", "city": "Dayton area", "county": "Montgomery", "metro": "Dayton", "type": "Carrier-Neutral", "size": "Extra Small", "status": "Operational", "mw": "1.4", "notes": "Note: listed under Dayton in Baxtel"}}, {"type": "Feature", "geometry": {"type": "Point", "coordinates": [-84.19627789197422, 39.74710754809597]}, "properties": {"name": "Radian: Dayton, OH", "operator": "Radian (undisclosed)", "city": "Dayton", "county": "Montgomery", "metro": "Dayton", "type": "Real Estate", "size": "Small", "status": "Operational", "mw": "3", "notes": "3 MW operational"}}, {"type": "Feature", "geometry": {"type": "Point", "coordinates": [-84.22974243491767, 39.557943440006795]}, "properties": {"name": "LexisNexis Springboro", "operator": "LexisNexis", "city": "Springboro", "county": "Warren", "metro": "Dayton", "type": "Enterprise", "size": "Extra Small", "status": "Operational", "mw": "", "notes": ""}}, {"type": "Feature", "geometry": {"type": "Point", "coordinates": [-83.82206610466311, 39.44029749728303]}, "properties": {"name": "Amazon AWS \u2013 Beta (Wilmington, OH)", "operator": "Amazon AWS", "city": "Wilmington", "county": "Clinton", "metro": "Dayton", "type": "Hyperscale", "size": "", "status": "In Doubt", "mw": "", "notes": "Status uncertain per Baxtel"}}, {"type": "Feature", "geometry": {"type": "Point", "coordinates": [-84.65833933638883, 39.73446891555617]}, "properties": {"name": "PRSM: Preble County", "operator": "PRSM Group", "city": "Preble County", "county": "Preble", "metro": "Dayton", "type": "Real Estate", "size": "", "status": "Withdrawn", "mw": "", "notes": "Project withdrawn"}}, {"type": "Feature", "geometry": {"type": "Point", "coordinates": [-84.23836636187882, 40.1428329099787]}, "properties": {"name": "Meta J5 LLC: Piqua, Ohio (Project Klondike)", "operator": "Meta (J5 LLC)", "city": "Piqua", "county": "Miami", "metro": "Dayton", "type": "Hyperscale", "size": "Large", "status": "Approved", "mw": "", "notes": "607 acres; $1B; approved Nov 2025 under NDA"}}, {"type": "Feature", "geometry": {"type": "Point", "coordinates": [-84.23692127880297, 40.14715750340653]}, "properties": {"name": "Meta J5 LLC: Piqua 2", "operator": "Meta (J5 LLC)", "city": "Piqua", "county": "Miami", "metro": "Dayton", "type": "Hyperscale", "size": "Large", "status": "Planned", "mw": "", "notes": "Second Piqua parcel"}}, {"type": "Feature", "geometry": {"type": "Point", "coordinates": [-83.90802306142308, 39.02531030968594]}, "properties": {"name": "Meta DB Stu LLC: Mt. Orab (Brown County)", "operator": "Meta (DB Stu LLC)", "city": "Mt. Orab", "county": "Brown", "metro": "SE Ohio", "type": "Hyperscale", "size": "Extra Large", "status": "Approved", "mw": "", "notes": "1,000+ acres; NDA scandal; $1B+"}}, {"type": "Feature", "geometry": {"type": "Point", "coordinates": [-84.1625080491273, 40.27555151078824]}, "properties": {"name": "Amazon Project Galaxy (Sidney)", "operator": "Amazon AWS", "city": "Sidney", "county": "Shelby", "metro": "W Ohio", "type": "Hyperscale", "size": "Extra Large", "status": "Approved", "mw": "", "notes": "$3B; 30-yr abatement; 75 jobs; approved Oct 2025"}}, {"type": "Feature", "geometry": {"type": "Point", "coordinates": [-83.01697161649199, 39.07051480303917]}, "properties": {"name": "PORTS Technology Campus (Piketon)", "operator": "Various / DOE", "city": "Piketon", "county": "Pike", "metro": "SE Ohio", "type": "Hyperscale", "size": "Extra Large", "status": "Construction", "mw": "10000", "notes": "10 GW campus on former gaseous diffusion plant; groundbreaking March 20, 2026 \u2014 largest ever"}}, {"type": "Feature", "geometry": {"type": "Point", "coordinates": [-82.94784053721496, 39.706857133608715]}, "properties": {"name": "EdgeConneX Ashville 2", "operator": "EdgeConneX", "city": "Ashville", "county": "Pickaway", "metro": "Columbus", "type": "Carrier-Neutral", "size": "", "status": "Withdrawn", "mw": "", "notes": "Project withdrawn after initial announcement"}}, {"type": "Feature", "geometry": {"type": "Point", "coordinates": [-84.152392897859, 40.292510135771224]}, "properties": {"name": "Amazon AWS \u2013 Project Galaxy \u2013 Sidney Phase 2", "operator": "Amazon AWS", "city": "Sidney", "county": "Shelby", "metro": "W Ohio", "type": "Hyperscale", "size": "Extra Large", "status": "Planned", "mw": "", "notes": "Phase 2 expansion per Shelby County approvals"}}, {"type": "Feature", "geometry": {"type": "Point", "coordinates": [-82.69124551354923, 40.15944780995011]}, "properties": {"name": "Cologix Johnstown COL7 ($7B campus)", "operator": "Cologix", "city": "Johnstown", "county": "Licking", "metro": "Columbus", "type": "Carrier-Neutral", "size": "Extra Large", "status": "Construction", "mw": "800", "notes": "See row 98; listed separately for $7B context"}}]}